{
  "source": "https://www.ogm.gov.tr/tr/kurulusumuz-sitesi/Pages/tasra-birimleri.aspx",
  "directorates": [
    { "id": "adana-obm", "name": "Adana Orman Bölge Müdürlüğü", "city": "Adana", "latitude": 37.0, "longitude": 35.3213 },
    { "id": "amasya-obm", "name": "Amasya Orman Bölge Müdürlüğü", "city": "Amasya", "latitude": 40.6565, "longitude": 35.8373 },
    { "id": "ankara-obm", "name": "Ankara Orman Bölge Müdürlüğü", "city": "Ankara", "latitude": 39.9334, "longitude": 32.8597 },
    { "id": "antalya-obm", "name": "Antalya Orman Bölge Müdürlüğü", "city": "Antalya", "latitude": 36.8969, "longitude": 30.7133 },
    { "id": "artvin-obm", "name": "Artvin Orman Bölge Müdürlüğü", "city": "Artvin", "latitude": 41.1828, "longitude": 41.8183 },
    { "id": "balikesir-obm", "name": "Balıkesir Orman Bölge Müdürlüğü", "city": "Balıkesir", "latitude": 39.6484, "longitude": 27.8826 },
    { "id": "bolu-obm", "name": "Bolu Orman Bölge Müdürlüğü", "city": "Bolu", "latitude": 40.7395, "longitude": 31.6116 },
    { "id": "bursa-obm", "name": "Bursa Orman Bölge Müdürlüğü", "city": "Bursa", "latitude": 40.1885, "longitude": 29.061 },
    { "id": "canakkale-obm", "name": "Çanakkale Orman Bölge Müdürlüğü", "city": "Çanakkale", "latitude": 40.1467, "longitude": 26.4086 },
    { "id": "denizli-obm", "name": "Denizli Orman Bölge Müdürlüğü", "city": "Denizli", "latitude": 37.7765, "longitude": 29.0864 },
    { "id": "elazig-obm", "name": "Elâzığ Orman Bölge Müdürlüğü", "city": "Elâzığ", "latitude": 38.681, "longitude": 39.2264 },
    { "id": "erzurum-obm", "name": "Erzurum Orman Bölge Müdürlüğü", "city": "Erzurum", "latitude": 39.9043, "longitude": 41.2679 },
    { "id": "eskisehir-obm", "name": "Eskişehir Orman Bölge Müdürlüğü", "city": "Eskişehir", "latitude": 39.7667, "longitude": 30.5256 },
    { "id": "giresun-obm", "name": "Giresun Orman Bölge Müdürlüğü", "city": "Giresun", "latitude": 40.9128, "longitude": 38.3895 },
    { "id": "hatay-obm", "name": "Hatay Orman Bölge Müdürlüğü", "city": "Hatay", "latitude": 36.2021, "longitude": 36.1606 },
    { "id": "isparta-obm", "name": "Isparta Orman Bölge Müdürlüğü", "city": "Isparta", "latitude": 37.7648, "longitude": 30.5566 },
    { "id": "istanbul-obm", "name": "İstanbul Orman Bölge Müdürlüğü", "city": "İstanbul", "latitude": 41.0082, "longitude": 28.9784 },
    { "id": "izmir-obm", "name": "İzmir Orman Bölge Müdürlüğü", "city": "İzmir", "latitude": 38.4237, "longitude": 27.1428 },
    { "id": "kahramanmaras-obm", "name": "Kahramanmaraş Orman Bölge Müdürlüğü", "city": "Kahramanmaraş", "latitude": 37.5858, "longitude": 36.9371 },
    { "id": "kastamonu-obm", "name": "Kastamonu Orman Bölge Müdürlüğü", "city": "Kastamonu", "latitude": 41.3891, "longitude": 33.7836 },
    { "id": "kayseri-obm", "name": "Kayseri Orman Bölge Müdürlüğü", "city": "Kayseri", "latitude": 38.7225, "longitude": 35.4875 },
    { "id": "konya-obm", "name": "Konya Orman Bölge Müdürlüğü", "city": "Konya", "latitude": 37.8746, "longitude": 32.4932 },
    { "id": "kutahya-obm", "name": "Kütahya Orman Bölge Müdürlüğü", "city": "Kütahya", "latitude": 39.4192, "longitude": 29.9857 },
    { "id": "mugla-obm", "name": "Muğla Orman Bölge Müdürlüğü", "city": "Muğla", "latitude": 37.2153, "longitude": 28.3636 },
    { "id": "sakarya-obm", "name": "Sakarya Orman Bölge Müdürlüğü", "city": "Sakarya", "latitude": 40.7569, "longitude": 30.3781 },
    { "id": "sinop-obm", "name": "Sinop Orman Bölge Müdürlüğü", "city": "Sinop", "latitude": 42.0264, "longitude": 35.1517 },
    { "id": "trabzon-obm", "name": "Trabzon Orman Bölge Müdürlüğü", "city": "Trabzon", "latitude": 41.0027, "longitude": 39.7168 },
    { "id": "sanliurfa-obm", "name": "Şanlıurfa Orman Bölge Müdürlüğü", "city": "Şanlıurfa", "latitude": 37.1674, "longitude": 38.7955 },
    { "id": "zonguldak-obm", "name": "Zonguldak Orman Bölge Müdürlüğü", "city": "Zonguldak", "latitude": 41.4564, "longitude": 31.7987 },
    { "id": "mersin-obm", "name": "Mersin Orman Bölge Müdürlüğü", "city": "Mersin", "latitude": 36.8121, "longitude": 34.6415 }
  ]
}
